{
	"dumbo": [
		{
			"id": "superfine",
			"name": "Superfine",
			"location": [40.702928,-73.987494],
			"time": "6:15pm",
			"state": "future"
		},
		{
			"id": "rebar",
			"name": "Rebar",
			"location": [40.702976,-73.986958],
			"time": "6:45pm",
			"state": "future"
		},
		{
			"id": "68jay",
			"name": "68 Jay Street",
			"location": [40.703904,-73.986636],
			"time": "7:15pm",
			"state": "future"
		}
	],

	"les" : [
		{
			"id": "lolita",
			"name":"Lolita",
			"location": [40.718802,-73.990584],
			"time": "8:00",
			"state": "future"
		},
		{
			"id": "magician",
			"name":"The Magician",
			"location": [40.720266,-73.987258],
			"time": "8:30",
			"state": "future"
		},
		{
			"id": "sanloco",
			"name":"San Loco",
			"location": [40.7216,-73.987473],
			"time": "9:00",
			"state": "future"
		},
		{
			"id": "arlenes",
			"name":"Arlene's Grocery",
			"location": [40.721876,-73.988353],
			"time": "9:30",
			"state": "future"
		},
		{
			"id": "doubledown",
			"name":"Double Down",
			"location": [40.723063,-73.985778],
			"time": "10:00",
			"state": "future"
		},
		{
			"id": "sophies",
			"name":"Sophies",
			"location": [40.725112,-73.983782],
			"time": "10:30",
			"state": "future"
		},
		{
			"id": "horseshoe",
			"name":"HorseShoe Bar",
			"location": [40.725551,-73.981379],
			"time": "11:00",
			"state": "future"
		},
		{
			"id": "heathers",
			"name":"Heathers",
			"location": [40.730121,-73.980267],
			"time": "12:00",
			"state": "future"
		}
	]
}